{
"type": "FeatureCollection",
"name": "Recreation_Centers_(Places_of_Interest)",
"crs": { "type": "name", "properties": { "name": "urn:ogc:def:crs:OGC:1.3:CRS84" } },
"features": [
{ "type": "Feature", "properties": { "OBJECTID": 1, "CATEGORY": "RECREATION CENTERS", "NAME": "Upper County Neighborhood Recreation Center", "ADDRESS": "8201 Emory Grove Rd", "CITY": "Gaithersburg", "ZIPCODE": "20877", "PHONE": "240-777-8077", "URL": "http://www.montgomerycountymd.gov/rec/where/centers/index.html", "DATA": "County", "POINT_X": 1264921.2499270099, "POINT_Y": 540234.62511347001, "LATITUDE": 39.14993326, "LONGITUDE": -77.16718248 }, "geometry": { "type": "Point", "coordinates": [ -77.167184800169849, 39.149941131956417 ] } },
{ "type": "Feature", "properties": { "OBJECTID": 2, "CATEGORY": "RECREATION CENTERS", "NAME": "Jane E Lawton Center", "ADDRESS": "4301 Willow La", "CITY": "Chevy Chase", "ZIPCODE": "20815", "PHONE": "240-777-6855", "URL": "http://www.montgomerycountymd.gov/rec/where/centers/index.html", "DATA": "County", "POINT_X": 1287265.6249878199, "POINT_Y": 479218.40617664001, "LATITUDE": 38.98248949, "LONGITUDE": -77.08818494 }, "geometry": { "type": "Point", "coordinates": [ -77.088187223804297, 38.982497336064839 ] } },
{ "type": "Feature", "properties": { "OBJECTID": 3, "CATEGORY": "RECREATION CENTERS", "NAME": "Plum Gar Neighborhood Recreation Center", "ADDRESS": "19561 Scenery Dr", "CITY": "Germantown", "ZIPCODE": "20874", "PHONE": "240-777-4919", "URL": "http://www.montgomerycountymd.gov/rec/where/centers/index.html", "DATA": "County", "POINT_X": 1246041.00005343, "POINT_Y": 549768.68745834997, "LATITUDE": 39.17599601, "LONGITUDE": -77.23384307000001 }, "geometry": { "type": "Point", "coordinates": [ -77.233845414685518, 39.17600388673587 ] } },
{ "type": "Feature", "properties": { "OBJECTID": 4, "CATEGORY": "RECREATION CENTERS", "NAME": "Clara Barton Recreation Center", "ADDRESS": "7425 Mac Arthur Blv", "CITY": "Cabin John", "ZIPCODE": "20818", "PHONE": "240-777-4910", "URL": "http://www.montgomerycountymd.gov/rec/where/centers/index.html", "DATA": "County", "POINT_X": 1268914.1249387299, "POINT_Y": 475880.71887754003, "LATITUDE": 38.97325868, "LONGITUDE": -77.15272337 }, "geometry": { "type": "Point", "coordinates": [ -77.15272567436358, 38.973266523448665 ] } },
{ "type": "Feature", "properties": { "OBJECTID": 5, "CATEGORY": "RECREATION CENTERS", "NAME": "Good Hope Neighborhood Rec Center (RENOVATION)", "ADDRESS": "14715 Good Hope Rd", "CITY": "Silver Spring", "ZIPCODE": "20905", "PHONE": "240-777-8055", "URL": "http://www.montgomerycountymd.gov/rec/where/centers/index.html", "DATA": "County", "POINT_X": 1316495.49995904, "POINT_Y": 520749.84378331999, "LATITUDE": 39.09655369, "LONGITUDE": -76.9853346 }, "geometry": { "type": "Point", "coordinates": [ -76.985336860494982, 39.096561557885998 ] } },
{ "type": "Feature", "properties": { "OBJECTID": 6, "CATEGORY": "RECREATION CENTERS", "NAME": "Gwendolyn E Coffield Recreation Center", "ADDRESS": "2450 Lyttonsville Rd", "CITY": "Silver Spring", "ZIPCODE": "20910", "PHONE": "240-777-4900", "URL": "http://www.montgomerycountymd.gov/rec/where/centers/index.html", "DATA": "County", "POINT_X": 1297852.25002168, "POINT_Y": 485147.53130217001, "LATITUDE": 38.99879127, "LONGITUDE": -77.05095423 }, "geometry": { "type": "Point", "coordinates": [ -77.050956508465219, 38.99879911861273 ] } },
{ "type": "Feature", "properties": { "OBJECTID": 7, "CATEGORY": "RECREATION CENTERS", "NAME": "Scotland Neighborhood Recreation Center", "ADDRESS": "7700 Scotland Dr", "CITY": "Potomac", "ZIPCODE": "20854", "PHONE": "240-777-8075", "URL": "http://www.montgomerycountymd.gov/rec/where/centers/index.html", "DATA": "County", "POINT_X": 1267243.8749531801, "POINT_Y": 497027.90635323001, "LATITUDE": 39.03131457, "LONGITUDE": -77.15872765 }, "geometry": { "type": "Point", "coordinates": [ -77.15872996194561, 39.03132242628206 ] } },
{ "type": "Feature", "properties": { "OBJECTID": 8, "CATEGORY": "RECREATION CENTERS", "NAME": "Germantown Recreation Center", "ADDRESS": "18905 Kingsview Rd", "CITY": "Germantown", "ZIPCODE": "20874", "PHONE": "240-777-8095", "URL": "http://www.montgomerycountymd.gov/rec/where/centers/index.html", "DATA": "County", "POINT_X": 1231505.24989589, "POINT_Y": 546009.87503885, "LATITUDE": 39.16556247, "LONGITUDE": -77.28507553 }, "geometry": { "type": "Point", "coordinates": [ -77.28507788677274, 39.165570338322183 ] } },
{ "type": "Feature", "properties": { "OBJECTID": 9, "CATEGORY": "RECREATION CENTERS", "NAME": "Marilyn J Praisner Community Recreation Center", "ADDRESS": "14906 Old Columbia Pik", "CITY": "Burtonsville", "ZIPCODE": "20866", "PHONE": "240-777-4970", "URL": "http://www.montgomerycountymd.gov/rec/where/centers/index.html", "DATA": "County", "POINT_X": 1328902.5000346, "POINT_Y": 522587.15629702999, "LATITUDE": 39.10158465, "LONGITUDE": -76.94161429 }, "geometry": { "type": "Point", "coordinates": [ -76.941616536990082, 39.10159252627075 ] } },
{ "type": "Feature", "properties": { "OBJECTID": 10, "CATEGORY": "RECREATION CENTERS", "NAME": "Bauer Drive Recreation Center", "ADDRESS": "14625 Bauer Dr", "CITY": "Rockville", "ZIPCODE": "20853", "PHONE": "240-777-6922", "URL": "http://www.montgomerycountymd.gov/rec/where/centers/index.html", "DATA": "County", "POINT_X": 1281527.2500704799, "POINT_Y": 519924.06253454997, "LATITUDE": 39.09423702, "LONGITUDE": -77.10854203 }, "geometry": { "type": "Point", "coordinates": [ -77.108544331294752, 39.094244887526031 ] } },
{ "type": "Feature", "properties": { "OBJECTID": 11, "CATEGORY": "RECREATION CENTERS", "NAME": "Longwood Community Recreation Center", "ADDRESS": "19300 Georgia Ave", "CITY": "Brookeville", "ZIPCODE": "20833", "PHONE": "240-777-6920", "URL": "http://www.montgomerycountymd.gov/rec/where/centers/index.html", "DATA": "County", "POINT_X": 1295030.6190430501, "POINT_Y": 549239.31632185995, "LATITUDE": 39.17475981, "LONGITUDE": -77.06103341 }, "geometry": { "type": "Point", "coordinates": [ -77.061035693834583, 39.174767696245432 ] } },
{ "type": "Feature", "properties": { "OBJECTID": 12, "CATEGORY": "RECREATION CENTERS", "NAME": "Potomac Community Recreation Center", "ADDRESS": "11315 Falls Rd", "CITY": "Potomac", "ZIPCODE": "20854", "PHONE": "240-777-6960", "URL": "http://www.montgomerycountymd.gov/rec/where/centers/index.html", "DATA": "County", "POINT_X": 1257931.7500165, "POINT_Y": 500576.03128453001, "LATITUDE": 39.04100752, "LONGITUDE": -77.19153508 }, "geometry": { "type": "Point", "coordinates": [ -77.191537400225229, 39.041015368245738 ] } },
{ "type": "Feature", "properties": { "OBJECTID": 13, "CATEGORY": "RECREATION CENTERS", "NAME": "Ross Boddy Recreation Center (RENOVATION)", "ADDRESS": "18529 Brooke Rd", "CITY": "Sandy Spring", "ZIPCODE": "20860", "PHONE": "240-777-8050", "URL": "http://www.montgomerycountymd.gov/rec/where/centers/index.html", "DATA": "County", "POINT_X": 1303307.2500907599, "POINT_Y": 543425.93750044005, "LATITUDE": 39.15881021, "LONGITUDE": -77.03183138 }, "geometry": { "type": "Point", "coordinates": [ -77.031833653963446, 39.158818087728477 ] } },
{ "type": "Feature", "properties": { "OBJECTID": 14, "CATEGORY": "RECREATION CENTERS", "NAME": "East County Community Recreation Center", "ADDRESS": "3310 Gateshead Manor Way", "CITY": "Silver Spring", "ZIPCODE": "20904", "PHONE": "240-777-8090", "URL": "http://www.montgomerycountymd.gov/rec/where/centers/index.html", "DATA": "County", "POINT_X": 1328901.6250266, "POINT_Y": 514225.00000125001, "LATITUDE": 39.07862515, "LONGITUDE": -76.94163621 }, "geometry": { "type": "Point", "coordinates": [ -76.941638457700762, 39.078633019388569 ] } },
{ "type": "Feature", "properties": { "OBJECTID": 15, "CATEGORY": "RECREATION CENTERS", "NAME": "Long Branch Community Recreation Center", "ADDRESS": "8700 Piney Branch Rd", "CITY": "Silver Spring", "ZIPCODE": "20901", "PHONE": "240-777-6965", "URL": "http://www.montgomerycountymd.gov/rec/where/centers/index.html", "DATA": "County", "POINT_X": 1312807.7500676101, "POINT_Y": 485823.31242279999, "LATITUDE": 39.00065785, "LONGITUDE": -76.99833067 }, "geometry": { "type": "Point", "coordinates": [ -76.998332927794422, 39.000665697525243 ] } },
{ "type": "Feature", "properties": { "OBJECTID": 16, "CATEGORY": "RECREATION CENTERS", "NAME": "Lincoln Park Community Center", "ADDRESS": "357 Frederick Ave", "CITY": "Rockville", "ZIPCODE": "20850", "PHONE": "240-314-8780", "URL": "http://www.rockvillemd.gov/index.aspx?nid=1219", "DATA": "Municipal", "POINT_X": 1271269.24276492, "POINT_Y": 520086.42823070998, "LATITUDE": 39.09464376, "LONGITUDE": -77.1446859 }, "geometry": { "type": "Point", "coordinates": [ -77.144688209130109, 39.094651620290826 ] } },
{ "type": "Feature", "properties": { "OBJECTID": 17, "CATEGORY": "RECREATION CENTERS", "NAME": "Twinbrook Community Center", "ADDRESS": "12920 Twinbrook Pkw", "CITY": "Rockville", "ZIPCODE": "20851", "PHONE": "240-314-8830", "URL": "http://www.rockvillemd.gov/index.aspx?nid=1219", "DATA": "Municipal", "POINT_X": 1279760.33858083, "POINT_Y": 511430.48607863998, "LATITUDE": 39.07091072, "LONGITUDE": -77.11472994 }, "geometry": { "type": "Point", "coordinates": [ -77.114732241808383, 39.070918584412787 ] } },
{ "type": "Feature", "properties": { "OBJECTID": 18, "CATEGORY": "RECREATION CENTERS", "NAME": "Rockville Skate Park", "ADDRESS": "355 Martins La", "CITY": "Rockville", "ZIPCODE": "20850", "PHONE": "240-314-8625", "URL": "http://www.rockvillemd.gov/index.aspx?nid=1219", "DATA": "Municipal", "POINT_X": 1267011.26132096, "POINT_Y": 518284.72454903001, "LATITUDE": 39.08967744, "LONGITUDE": -77.1596774 }, "geometry": { "type": "Point", "coordinates": [ -77.159679719872088, 39.089685301196113 ] } },
{ "type": "Feature", "properties": { "OBJECTID": 19, "CATEGORY": "RECREATION CENTERS", "NAME": "Croydon Creek Nature Center", "ADDRESS": "852 Avery Rd", "CITY": "Rockville", "ZIPCODE": "20851", "PHONE": "240-314-8770", "URL": "http://www.rockvillemd.gov/index.aspx?nid=1219", "DATA": "Municipal", "POINT_X": 1276443.5127217399, "POINT_Y": 517603.01958839002, "LATITUDE": 39.0878463, "LONGITUDE": -77.1264427 }, "geometry": { "type": "Point", "coordinates": [ -77.126445001941207, 39.087854167766153 ] } },
{ "type": "Feature", "properties": { "OBJECTID": 20, "CATEGORY": "RECREATION CENTERS", "NAME": "Activity Center At Bohrer Park", "ADDRESS": "506 S Frederick Ave", "CITY": "Gaithersburg", "ZIPCODE": "20877", "PHONE": "301-258-6350", "URL": "http://www.gaithersburgmd.gov/government/departments/parks-recreation-and-culture", "DATA": "Municipal", "POINT_X": 1257027.7113596599, "POINT_Y": 534194.22677184001, "LATITUDE": 39.13330572, "LONGITUDE": -77.19497077 }, "geometry": { "type": "Point", "coordinates": [ -77.194973094889008, 39.133313594429168 ] } },
{ "type": "Feature", "properties": { "OBJECTID": 21, "CATEGORY": "RECREATION CENTERS", "NAME": "Gaithersburg Skate Park", "ADDRESS": "506 S Frederick Ave", "CITY": "Gaithersburg", "ZIPCODE": "20877", "PHONE": "301-258-6359", "URL": "http://www.gaithersburgmd.gov/government/departments/parks-recreation-and-culture", "DATA": "Municipal", "POINT_X": 1256855.8403835001, "POINT_Y": 534112.93653177004, "LATITUDE": 39.13308152, "LONGITUDE": -77.19557605 }, "geometry": { "type": "Point", "coordinates": [ -77.19557838183195, 39.13308939301033 ] } },
{ "type": "Feature", "properties": { "OBJECTID": 22, "CATEGORY": "RECREATION CENTERS", "NAME": "Casey Community Center", "ADDRESS": "810 S Frederick Ave", "CITY": "Gaithersburg", "ZIPCODE": "20877", "PHONE": "301-258-6366", "URL": "http://www.gaithersburgmd.gov/government/departments/parks-recreation-and-culture", "DATA": "Municipal", "POINT_X": 1260908.90534728, "POINT_Y": 530921.02433679998, "LATITUDE": 39.12434074, "LONGITUDE": -77.18126539 }, "geometry": { "type": "Point", "coordinates": [ -77.181267713006747, 39.124348604624359 ] } },
{ "type": "Feature", "properties": { "OBJECTID": 23, "CATEGORY": "RECREATION CENTERS", "NAME": "Leonard D Jackson Ken Gar Center", "ADDRESS": "4111 Plyers MIll Rd", "CITY": "Kensington", "ZIPCODE": "20895", "PHONE": "240-777-8057", "URL": "http://www.montgomerycountymd.gov/rec/where/centers/index.html", "DATA": "County", "POINT_X": null, "POINT_Y": null, "LATITUDE": 39.03170422, "LONGITUDE": -77.08116736 }, "geometry": { "type": "Point", "coordinates": [ -77.081169646781873, 39.031712072951009 ] } },
{ "type": "Feature", "properties": { "OBJECTID": 24, "CATEGORY": "RECREATION CENTERS", "NAME": "Olde Towne Youth Center", "ADDRESS": "301 Teachers Way", "CITY": "Gaithersburg", "ZIPCODE": "20877", "PHONE": "301-258-6440", "URL": "http://www.gaithersburgmd.gov/government/departments/parks-recreation-and-culture", "DATA": "Municipal", "POINT_X": 1259037.4209295299, "POINT_Y": 538081.95720745996, "LATITUDE": 39.14399147, "LONGITUDE": -77.1879141 }, "geometry": { "type": "Point", "coordinates": [ -77.18791642975799, 39.143999343016198 ] } },
{ "type": "Feature", "properties": { "OBJECTID": 25, "CATEGORY": "RECREATION CENTERS", "NAME": "Takoma Park Recreation Center", "ADDRESS": "7315 New Hampshire Ave", "CITY": "Takoma Park", "ZIPCODE": "20912", "PHONE": "301-891-7289", "URL": "http://www.takomaparkmd.gov/recreation", "DATA": "Municipal", "POINT_X": 1315750.06712635, "POINT_Y": 479197.33251262002, "LATITUDE": 38.98246426, "LONGITUDE": -76.98798042 }, "geometry": { "type": "Point", "coordinates": [ -76.987982670549002, 38.982472105062733 ] } },
{ "type": "Feature", "properties": { "OBJECTID": 26, "CATEGORY": "RECREATION CENTERS", "NAME": "Heffner Park Community Center", "ADDRESS": "42 Oswego Ave", "CITY": "Takoma Park", "ZIPCODE": "20912", "PHONE": "301-891-7290", "URL": "http://www.takomaparkmd.gov/recreation", "DATA": "Municipal", "POINT_X": 1309655.30078467, "POINT_Y": 480214.15734556998, "LATITUDE": 38.9852564, "LONGITUDE": -77.00942136 }, "geometry": { "type": "Point", "coordinates": [ -77.009423623821263, 38.985264247482327 ] } },
{ "type": "Feature", "properties": { "OBJECTID": 27, "CATEGORY": "RECREATION CENTERS", "NAME": "Gaithersburg Miniature Golf Course", "ADDRESS": "514 S Frederick Ave", "CITY": "Gaithersburg", "ZIPCODE": "20877", "PHONE": "301-258-6420", "URL": "http://www.gaithersburgmd.gov/government/departments/parks-recreation-and-culture", "DATA": "Municipal", "POINT_X": 1257130.68377576, "POINT_Y": 533821.76417950005, "LATITUDE": 39.13228369, "LONGITUDE": -77.19460496000001 }, "geometry": { "type": "Point", "coordinates": [ -77.194607285261455, 39.132291559274663 ] } },
{ "type": "Feature", "properties": { "OBJECTID": 28, "CATEGORY": "RECREATION CENTERS", "NAME": "Damascus Community Recreation Center", "ADDRESS": "25520 Oak Dr", "CITY": "Damascus", "ZIPCODE": "20872", "PHONE": "240-777-6930", "URL": "http://www.montgomerycountymd.gov/rec/where/centers/index.html", "DATA": "County", "POINT_X": 1251398.91340242, "POINT_Y": 586599.96557264996, "LATITUDE": 39.27715391, "LONGITUDE": -77.2152497 }, "geometry": { "type": "Point", "coordinates": [ -77.215252043807013, 39.277161808891677 ] } },
{ "type": "Feature", "properties": { "OBJECTID": 29, "CATEGORY": "RECREATION CENTERS", "NAME": "Robertson Park Youth Center", "ADDRESS": "801 Rabbitt Rd", "CITY": "Gaithersburg", "ZIPCODE": "20878", "PHONE": "301-258-6166", "URL": "http://www.gaithersburgmd.gov/government/departments/parks-recreation-and-culture", "DATA": "Municipal", "POINT_X": null, "POINT_Y": null, "LATITUDE": 39.14037348, "LONGITUDE": -77.23038358 }, "geometry": { "type": "Point", "coordinates": [ -77.230385921199669, 39.140381351463589 ] } },
{ "type": "Feature", "properties": { "OBJECTID": 30, "CATEGORY": "RECREATION CENTERS", "NAME": "Thomas Farm Community Center", "ADDRESS": "700 Fallsgrove Dr", "CITY": "Rockville", "ZIPCODE": "20850", "PHONE": "240-314-8840", "URL": "http://www.rockvillemd.gov/index.aspx?nid=1219", "DATA": "Municipal", "POINT_X": null, "POINT_Y": null, "LATITUDE": 39.0989287, "LONGITUDE": -77.18537448 }, "geometry": { "type": "Point", "coordinates": [ -77.185376807148302, 39.098936564456174 ] } },
{ "type": "Feature", "properties": { "OBJECTID": 31, "CATEGORY": "RECREATION CENTERS", "NAME": "Takoma Park Community Center", "ADDRESS": "7500 Maple Ave", "CITY": "Takoma Park", "ZIPCODE": "20912", "PHONE": "301-891-7100", "URL": "http://www.takomaparkmd.gov/recreation", "DATA": "Municipal", "POINT_X": 1309511.7298405401, "POINT_Y": 478955.07177639997, "LATITUDE": 38.98179928, "LONGITUDE": -77.00992596 }, "geometry": { "type": "Point", "coordinates": [ -77.009928225243684, 38.981807123030194 ] } },
{ "type": "Feature", "properties": { "OBJECTID": 32, "CATEGORY": "RECREATION CENTERS", "NAME": "Stedwick Community Center", "ADDRESS": "10401 Stedwick Rd", "CITY": "Montgomery Village", "ZIPCODE": "20886", "PHONE": "301-926-9793", "URL": "https://www.montgomeryvillage.com/recreation/rentalscommunity-space", "DATA": "Municipal", "POINT_X": 1251837.86866683, "POINT_Y": 548106.0340168, "LATITUDE": 39.17147005, "LONGITUDE": -77.21338126000001 }, "geometry": { "type": "Point", "coordinates": [ -77.213383599118245, 39.171477926150217 ] } },
{ "type": "Feature", "properties": { "OBJECTID": 33, "CATEGORY": "RECREATION CENTERS", "NAME": "Lake Marion Community Center", "ADDRESS": "8821 E Village Ave", "CITY": "Montgomery Village", "ZIPCODE": "20886", "PHONE": "301-948-8082", "URL": "https://www.montgomeryvillage.com/recreation/rentalscommunity-space", "DATA": "Municipal", "POINT_X": 1261311.3048356499, "POINT_Y": 554290.61002255999, "LATITUDE": 39.18850632, "LONGITUDE": -77.18000941 }, "geometry": { "type": "Point", "coordinates": [ -77.180011741416806, 39.188514198075211 ] } },
{ "type": "Feature", "properties": { "OBJECTID": 34, "CATEGORY": "RECREATION CENTERS", "NAME": "North Creek Community Center", "ADDRESS": "20125 Arrowhead Rd", "CITY": "Montgomery Village", "ZIPCODE": "20886", "PHONE": "301-948-0110", "URL": "https://www.montgomeryvillage.com/recreation/rentalscommunity-space", "DATA": "Municipal", "POINT_X": 1256805.16159945, "POINT_Y": 553884.93603818002, "LATITUDE": 39.18736704, "LONGITUDE": -77.19590429 }, "geometry": { "type": "Point", "coordinates": [ -77.195906625965208, 39.187374917943785 ] } },
{ "type": "Feature", "properties": { "OBJECTID": 35, "CATEGORY": "RECREATION CENTERS", "NAME": "Whetstone Community Center", "ADDRESS": "19140 Brooke Grove Ct", "CITY": "Montgomery Village", "ZIPCODE": "20886", "PHONE": "301-926-9428", "URL": "https://www.montgomeryvillage.com/recreation/rentalscommunity-space", "DATA": "Municipal", "POINT_X": 1256078.35839878, "POINT_Y": 547594.21500832005, "LATITUDE": 39.17009107, "LONGITUDE": -77.19842022 }, "geometry": { "type": "Point", "coordinates": [ -77.198422550355815, 39.170098945250707 ] } },
{ "type": "Feature", "properties": { "OBJECTID": 36, "CATEGORY": "RECREATION CENTERS", "NAME": "Apple Ridge Ball Field", "ADDRESS": "20101 Swallow Point Rd", "CITY": "Montgomery Village", "ZIPCODE": "20886", "PHONE": "301-948-0110", "URL": "https://www.montgomeryvillage.com/recreation/parks-playgrounds", "DATA": "Municipal", "POINT_X": 1256042.1520627399, "POINT_Y": 553852.80317414994, "LATITUDE": 39.18727429, "LONGITUDE": -77.19859595 }, "geometry": { "type": "Point", "coordinates": [ -77.198598280388197, 39.187282168505575 ] } },
{ "type": "Feature", "properties": { "OBJECTID": 37, "CATEGORY": "RECREATION CENTERS", "NAME": "Mid County Community Center", "ADDRESS": "2004 Queensguard Rd", "CITY": "Wheaton", "ZIPCODE": "20906", "PHONE": "240-777-6820", "URL": "http://www.montgomerycountymd.gov/rec/where/centers/index.html", "DATA": "County", "POINT_X": 1300162.81335183, "POINT_Y": 517255.74739606999, "LATITUDE": 39.08695321, "LONGITUDE": -77.04287718 }, "geometry": { "type": "Point", "coordinates": [ -77.042879459491957, 39.086961082096899 ] } },
{ "type": "Feature", "properties": { "OBJECTID": 38, "CATEGORY": "RECREATION CENTERS", "NAME": "Nancy H Dacek N Potomac Recreation Center", "ADDRESS": "13850 Travilah Rd", "CITY": "North Potomac", "ZIPCODE": "20878", "PHONE": "240-777-6800", "URL": "http://www.montgomerycountymd.gov/rec/where/centers/index.html", "DATA": "County", "POINT_X": 1246402.4469657601, "POINT_Y": 516188.48032307002, "LATITUDE": 39.08380043, "LONGITUDE": -77.23226671 }, "geometry": { "type": "Point", "coordinates": [ -77.232501739288637, 39.083109941110052 ] } },
{ "type": "Feature", "properties": { "OBJECTID": 39, "CATEGORY": "RECREATION CENTERS", "NAME": "North Bethesda Community Center (Planned)", "ADDRESS": "6400 Rock Forest Dr", "CITY": "Bethesda", "ZIPCODE": "20817", "PHONE": "240-777-6800", "URL": "http://www.montgomerycountymd.gov/rec/where/centers/index.html", "DATA": "County", "POINT_X": 1275726.1326250699, "POINT_Y": 496226.28868847998, "LATITUDE": 39.02915028, "LONGITUDE": -77.12886377 }, "geometry": { "type": "Point", "coordinates": [ -77.128866073038509, 39.029158126905209 ] } },
{ "type": "Feature", "properties": { "OBJECTID": 40, "CATEGORY": "RECREATION CENTERS", "NAME": "White Oak Community Recreation Center", "ADDRESS": "1700 April La", "CITY": "White Oak", "ZIPCODE": "20904", "PHONE": "240-777-6940", "URL": "http://www.montgomerycountymd.gov/rec/where/centers/index.html", "DATA": "County", "POINT_X": 1319315.7562176699, "POINT_Y": 502389.70245421998, "LATITUDE": 39.04614138, "LONGITUDE": -76.97541482 }, "geometry": { "type": "Point", "coordinates": [ -76.975417076752848, 39.046149243255918 ] } },
{ "type": "Feature", "properties": { "OBJECTID": 41, "CATEGORY": "RECREATION CENTERS", "NAME": "Wisconsin Place Community Center", "ADDRESS": "5311 Friendship Blv", "CITY": "Friendship Heights", "ZIPCODE": "20815", "PHONE": "240-777-8088", "URL": "http://www.montgomerycountymd.gov/rec/where/centers/index.html", "DATA": "County", "POINT_X": 1287396.0413719399, "POINT_Y": 471314.79016928002, "LATITUDE": 38.96078876, "LONGITUDE": -77.08769944 }, "geometry": { "type": "Point", "coordinates": [ -77.087701725207864, 38.960796604326553 ] } },
{ "type": "Feature", "properties": { "OBJECTID": 42, "CATEGORY": "RECREATION CENTERS", "NAME": "Wheaton Community Recreation Center", "ADDRESS": "11701 Georgia Ave", "CITY": "Wheaton", "ZIPCODE": "20902", "PHONE": "240-773-4825", "URL": "http://www.montgomerycountymd.gov/rec/where/centers/index.html", "DATA": "County", "POINT_X": 1297717.45845814, "POINT_Y": 503060.37842447998, "LATITUDE": 39.04797415, "LONGITUDE": -77.05146402 }, "geometry": { "type": "Point", "coordinates": [ -77.051466332600867, 39.047981966731733 ] } }
]
}
